[{"Name":"St. Mary's Recreation Center Pool","Location":"St. Ann's Avenue and E. 145th Street","Phone":"(718) 402-5157","Setting":"Indoor","Accessible":"Yes","Borough":"Bronx"},{"Name":"Brownsville Recreation Center Pool","Location":"Linden and Mother Gaston Blvds. and Christopher Avenue","Phone":"(718) 485-4633","Setting":"Indoor","Accessible":"Yes","Borough":"Brooklyn"},{"Name":"Metropolitan Recreation Center Pool","Location":"Bedford and Metropolitan Avenues","Phone":"(718) 599-5707","Setting":"Indoor","Accessible":"Yes","Borough":"Brooklyn"},{"Name":"St. John's Recreation Center Pool","Location":"Prospect Place, between Troy and Schenectady Avenues","Phone":"(718) 771-2787","Setting":"Indoor","Accessible":"Yes","Borough":"Brooklyn"},{"Name":"Asser Levy Recreation Center Pool","Location":"Asser Levy Place and E. 23rd Street","Phone":"(212) 447-2020","Setting":"Indoor","Accessible":"Yes","Borough":"Manhattan"},{"Name":"Chelsea Recreation Center Pool","Location":"West 25th St. between 9th &amp; 10th Aves","Phone":"(212) 255-3705","Setting":"Indoor","Accessible":"Yes","Borough":"Manhattan"},{"Name":"Tony Dapolito Recreation Center Pool","Location":"Clarkson St. and Seventh Ave. South","Phone":"(646) 300-2271","Setting":"Indoor","Accessible":"Yes","Borough":"Manhattan"},{"Name":"Gertrude Ederle  Recreation Center Pool","Location":"232 West 60th Street","Phone":"(212) 397-3159","Setting":"Indoor","Accessible":"Yes","Borough":"Manhattan"},{"Name":"Hansborough Recreation Center Pool","Location":"134th St. between Fifth &amp; Lenox Aves.","Phone":"(212) 234-9603","Setting":"Indoor","Accessible":"Yes","Borough":"Manhattan"},{"Name":"Recreation Center 54 Pool","Location":"E. 54th St. bet. First and Second Aves.","Phone":"(212) 754-5411","Setting":"Indoor","Accessible":"Yes","Borough":"Manhattan"},{"Name":"Roy Wilkins  Recreation Center Pool","Location":"177th Street and Baisley Boulevard","Phone":"(718) 276-4630","Setting":"Indoor","Accessible":"Yes","Borough":"Queens"},{"Name":"Flushing Meadows Corona Park Pool & Rink","Location":"Avery Avenue and 131 Street","Phone":"(718) 271-7572","Setting":"Indoor","Accessible":"Yes","Borough":"Queens"},{"Name":"Flushing Meadows Corona Park Pool & Rink","Location":"Avery Avenue and 131 Street","Phone":"(718) 271-7572","Setting":"Indoor","Accessible":"Yes","Borough":"Queens"},{"Name":"Claremont","Location":"170th Street and Clay Avenue","Phone":"(718) 901-4792","Setting":"Outdoor","Accessible":"Yes","Borough":"Bronx"},{"Name":"Crotona","Location":"173rd Street and Fulton Avenue","Phone":"(718) 731-6872","Setting":"Outdoor","Accessible":"Yes","Borough":"Bronx"},{"Name":"Haffen","Location":"Ely and Burke Avenues","Phone":"(718) 379-2908","Setting":"Outdoor","Accessible":"Yes","Borough":"Bronx"},{"Name":"Mapes","Location":"E. 180th Street between Mapes &amp; Prospect Avenues","Phone":"(718) 364-8876","Setting":"Outdoor","Accessible":"Yes","Borough":"Bronx"},{"Name":"Mullaly","Location":"E. 164th St. bet. Jerome &amp; River Aves.","Phone":"(718) 538-7083","Setting":"Outdoor","Accessible":"Yes","Borough":"Bronx"},{"Name":"Van Cortlandt","Location":"W. 242nd St. and Broadway","Phone":"(718) 548-2415","Setting":"Outdoor","Accessible":"Yes","Borough":"Bronx"},{"Name":"Claremont","Location":"170th Street and Clay Avenue","Phone":"(718) 901-4792","Setting":"Outdoor","Accessible":"No","Borough":"Bronx"},{"Name":"Haffen","Location":"Ely and Burke Avenues","Phone":"(718) 379-2908","Setting":"Outdoor","Accessible":"No","Borough":"Bronx"},{"Name":"Mapes","Location":"180th Street &amp; Prospect Avenue","Phone":"(718) 364-8876","Setting":"Outdoor","Accessible":"No","Borough":"Bronx"},{"Name":"Mullaly","Location":"164th St. bet. Jerome &amp; River Avenues","Phone":"(718) 538-7083","Setting":"Outdoor","Accessible":"No","Borough":"Bronx"},{"Name":"Van Cortlandt","Location":"W. 242nd St. and Broadway","Phone":"(718) 548-2415","Setting":"Outdoor","Accessible":"Yes","Borough":"Bronx"},{"Name":"Bronx River Playground","Location":"E. 174th Street &amp; Bronx River Avenue","Phone":"(718) 378-1597","Setting":"Outdoor","Accessible":"No","Borough":"Bronx"},{"Name":"Edenwald Houses","Location":"Schieffelin Avenue &amp; E. 229th Street","Phone":"(718) 515-2160","Setting":"Outdoor","Accessible":"No","Borough":"Bronx"},{"Name":"Betsy Head","Location":"Boyland, Livonia and Dumont Avenues","Phone":"(718) 257-1635/6","Setting":"Outdoor","Accessible":"Yes","Borough":"Brooklyn"},{"Name":"Bushwick","Location":"Humboldt Street, Flushing &amp; Bushwick Avenues","Phone":"(718) 452-2116","Setting":"Outdoor","Accessible":"Yes","Borough":"Brooklyn"},{"Name":"Commodore Barry","Location":"Flushing and Park Avenues, Navy and North Elliot Streets","Phone":"(718) 243-2593","Setting":"Outdoor","Accessible":"Yes","Borough":"Brooklyn"},{"Name":"Douglass and DeGraw","Location":"Third Avenue and Nevins Street","Phone":"(718) 625-3268","Setting":"Outdoor","Accessible":"Yes","Borough":"Brooklyn"},{"Name":"Howard","Location":"Glenmore and Mother Gaston Blvd., East New York Avenue","Phone":"(718) 385-1023","Setting":"Outdoor","Accessible":"Yes","Borough":"Brooklyn"},{"Name":"Kosciuszko","Location":"Marcy Avenue between DeKalb Avenue & Kosciuszko Street","Phone":"(718) 622-5271","Setting":"Outdoor","Accessible":"Yes","Borough":"Brooklyn"},{"Name":"Red Hook","Location":"Bay and Henry Streets","Phone":"(718) 722-3211","Setting":"Outdoor","Accessible":"Yes","Borough":"Brooklyn"},{"Name":"Sunset Park","Location":"Seventh Avenue between 41st and 44th Streets","Phone":"(718) 972-2180","Setting":"Outdoor","Accessible":"Yes","Borough":"Brooklyn"},{"Name":"Bushwick","Location":"Humboldt Street, Flushing &amp; Bushwick Avenues","Phone":"(718) 452-2116","Setting":"Outdoor","Accessible":"No","Borough":"Brooklyn"},{"Name":"Commodore Barry","Location":"Flushing and Park Avenues, Navy and North Elliot Streets","Phone":"(718) 243-2593","Setting":"Outdoor","Accessible":"No","Borough":"Brooklyn"},{"Name":"Douglass and DeGraw","Location":"Third Avenue and Nevins Street","Phone":"(718) 625-3268","Setting":"Outdoor","Accessible":"No","Borough":"Brooklyn"},{"Name":"Howard","Location":"Glenmore and Mother Gaston Blvd., East New York Avenue","Phone":"(718) 385-1023","Setting":"Outdoor","Accessible":"No","Borough":"Brooklyn"},{"Name":"Kosciuszko","Location":"Marcy Avenue between DeKalb Avenue & Kosciuszko Street","Phone":"(718) 622-5271","Setting":"Outdoor","Accessible":"No","Borough":"Brooklyn"},{"Name":"David Fox/PS 251","Location":"E. 54th Street &amp; Avenue H","Phone":"(718) 531-2437","Setting":"Outdoor","Accessible":"No","Borough":"Brooklyn"},{"Name":"Glenwood Houses","Location":"Farragut Road &amp; Ralph Avenue","Phone":"(718) 531-2480","Setting":"Outdoor","Accessible":"No","Borough":"Brooklyn"},{"Name":"JHS 57/HS 26","Location":"117 Stuyvesant Avenue","Phone":"(718) 452-0519","Setting":"Outdoor","Accessible":"No","Borough":"Brooklyn"},{"Name":"Lindower Park","Location":"E. 60th St, Mill Rd. &amp; Strickland Avenue","Phone":"(718) 531-4852","Setting":"Outdoor","Accessible":"No","Borough":"Brooklyn"},{"Name":"PS 20 Playground","Location":"Between Clermont Ave. &amp; Adelphi St.","Phone":"(718) 625-6101","Setting":"Outdoor","Accessible":"No","Borough":"Brooklyn"},{"Name":"Asser Levy","Location":"Asser Levy Place and E. 23rd Street","Phone":"(212) 447-2020","Setting":"Outdoor","Accessible":"Yes","Borough":"Manhattan"},{"Name":"Tony Dapolito","Location":"Clarkson St. and Seventh Ave. South","Phone":"(646) 300-2271","Setting":"Outdoor","Accessible":"Yes","Borough":"Manhattan"},{"Name":"Dry Dock","Location":"E. 10th St. between Aves. C and D","Phone":"(212) 677-4481","Setting":"Outdoor","Accessible":"Yes","Borough":"Manhattan"},{"Name":"Hamilton Fish","Location":"Pitt Street and Houston Street","Phone":"(212) 387-7691","Setting":"Outdoor","Accessible":"Yes","Borough":"Manhattan"},{"Name":"Highbridge","Location":"Amsterdam Ave. and W. 173rd Street","Phone":"(212) 927-2400","Setting":"Outdoor","Accessible":"Yes","Borough":"Manhattan"},{"Name":"Jackie Robinson","Location":"Bradhurst Avenue and W. 146th Street","Phone":"(212) 234-9606","Setting":"Outdoor","Accessible":"Yes","Borough":"Manhattan"},{"Name":"John Jay","Location":"East of York Avenue on 77th St.","Phone":"(212) 794-6566","Setting":"Outdoor","Accessible":"Yes","Borough":"Manhattan"},{"Name":"Lasker","Location":"110th Street &amp; Lenox Avenue","Phone":"(212-534-7639) ","Setting":"Outdoor","Accessible":"Yes","Borough":"Manhattan"},{"Name":"Marcus Garvey","Location":"124th Street and Fifth Avenue","Phone":"(212) 410-2818","Setting":"Outdoor","Accessible":"Yes","Borough":"Manhattan"},{"Name":"Sheltering Arms","Location":"W. 129th Street and Amsterdam Ave.","Phone":"(212) 662-6191","Setting":"Outdoor","Accessible":"Yes","Borough":"Manhattan"},{"Name":"Thomas Jefferson","Location":"E. 112th Street and First Avenue","Phone":"(212) 860-1372","Setting":"Outdoor","Accessible":"Yes","Borough":"Manhattan"},{"Name":"Wagner","Location":"E. 124th Street between First and Second Avenues","Phone":"(212) 534-4238","Setting":"Outdoor","Accessible":"Yes","Borough":"Manhattan"},{"Name":"Asser Levy","Location":"Asser Levy Place and E. 23rd Street","Phone":"(212) 447-2020","Setting":"Outdoor","Accessible":"No","Borough":"Manhattan"},{"Name":"Dry Dock","Location":"E. 10th St. between Aves. C and D","Phone":"(212) 677-4481","Setting":"Outdoor","Accessible":"No","Borough":"Manhattan"},{"Name":"Hamilton Fish","Location":"Pitt Street and Houston Street","Phone":"(212) 387-7691","Setting":"Outdoor","Accessible":"No","Borough":"Manhattan"},{"Name":"Highbridge","Location":"Amsterdam Ave. and W. 173rd Street","Phone":"(212) 927-2400","Setting":"Outdoor","Accessible":"No","Borough":"Manhattan"},{"Name":"Lasker","Location":"110th Street &amp; Lenox Avenue","Phone":"(212-534-7639) ","Setting":"Outdoor","Accessible":"No","Borough":"Manhattan"},{"Name":"Sheltering Arms","Location":"W. 129th Street and Amsterdam Ave.","Phone":"(212) 662-6191","Setting":"Outdoor","Accessible":"No","Borough":"Manhattan"},{"Name":"Thomas Jefferson","Location":"E. 112th Street and First Avenue","Phone":"(212) 860-1372","Setting":"Outdoor","Accessible":"No","Borough":"Manhattan"},{"Name":"Wagner","Location":"E. 124th Street between First and Second Avenues","Phone":"(212) 534-4238","Setting":"Outdoor","Accessible":"No","Borough":"Manhattan"},{"Name":"Abe Lincoln","Location":"5th Avenue &amp; E. 135th Street","Phone":"(212) 491-1714","Setting":"Outdoor","Accessible":"No","Borough":"Manhattan"},{"Name":"Frederick Douglass","Location":"Amsterdam Ave. between 100th &amp; 102nd Streets","Phone":"(212) 316-3241","Setting":"Outdoor","Accessible":"Yes","Borough":"Manhattan"},{"Name":"Vesuvio","Location":"Thompson St. between Spring &amp; Prince Streets","Phone":"(212) 343-0959","Setting":"Outdoor","Accessible":"Yes","Borough":"Manhattan"},{"Name":"Tompkins Square","Location":"Ave. A between E. 7th &amp; E. 10th Streets","Phone":"(212) 387-6784","Setting":"Outdoor","Accessible":"No","Borough":"Manhattan"},{"Name":"Tony Dapolito","Location":"Clarkson St. and Seventh Ave. South","Phone":"(646) 300-2271","Setting":"Outdoor","Accessible":"No","Borough":"Manhattan"},{"Name":"John Jay","Location":"East of York Avenue on 77th St.","Phone":"(212) 794-6566","Setting":"Outdoor","Accessible":"No","Borough":"Manhattan"},{"Name":"Astoria","Location":"19th Street and 23rd Drive","Phone":"(718) 626-8620","Setting":"Outdoor","Accessible":"Yes","Borough":"Queens"},{"Name":"Fisher","Location":"99th Street and 32nd Avenue","Phone":"(718) 779-8356","Setting":"Outdoor","Accessible":"Yes","Borough":"Queens"},{"Name":"Liberty","Location":"173rd Street and 106th Avenue","Phone":"(718) 657-4995","Setting":"Outdoor","Accessible":"Yes","Borough":"Queens"},{"Name":"Fort Totten","Location":"338 Story Avenue","Phone":"(718) 224-4031","Setting":"Outdoor","Accessible":"Yes","Borough":"Queens"},{"Name":"Liberty","Location":"173rd Street and 106th Avenue","Phone":"(718) 657-4995","Setting":"Outdoor","Accessible":"No","Borough":"Queens"},{"Name":"Marie Curie Park","Location":"211th Street &amp; 46th Avenue","Phone":"(718) 423-0762","Setting":"Outdoor","Accessible":"No","Borough":"Queens"},{"Name":"PS 186 Playground","Location":"Little Neck Parkway &amp; 72nd Avenue","Phone":"(718) 347-2945","Setting":"Outdoor","Accessible":"No","Borough":"Queens"},{"Name":"Windmuller","Location":"54th Street &amp; 39th Road","Phone":"(718) 651-8247","Setting":"Outdoor","Accessible":"No","Borough":"Queens"},{"Name":"Fort Totten","Location":"338 Story Avenue","Phone":"(718) 224-4031","Setting":"Outdoor","Accessible":"No","Borough":"Queens"},{"Name":"Faber","Location":"Faber Street and Richmond Terrace","Phone":"(718) 816-5259","Setting":"Outdoor","Accessible":"Yes","Borough":"Staten Island"},{"Name":"Lyons","Location":"Pier 6 and Victory Boulevard","Phone":"(718) 816-5255","Setting":"Outdoor","Accessible":"Yes","Borough":"Staten Island"},{"Name":"Tottenville","Location":"Hylan Boulevard and Joline Avenue","Phone":"(718) 356-8242","Setting":"Outdoor","Accessible":"Yes","Borough":"Staten Island"},{"Name":"West Brighton","Location":"Henderson Avenue between Broadway and Chappel Streets","Phone":"(718) 816-5019","Setting":"Outdoor","Accessible":"Yes","Borough":"Staten Island"},{"Name":"Lyons","Location":"Pier 6 &amp; Victory Boulevard","Phone":"(718) 816-5255","Setting":"Outdoor","Accessible":"No","Borough":"Staten Island"},{"Name":"Tottenville","Location":"Hylan Boulevard and Joline Avenue","Phone":"(718) 356-8242","Setting":"Outdoor","Accessible":"No","Borough":"Staten Island"},{"Name":"West Brighton","Location":"Henderson Avenue between Broadway and Chappel Streets","Phone":"(718) 816-5019","Setting":"Outdoor","Accessible":"No","Borough":"Staten Island"},{"Name":"General Douglas","Location":"Jefferson Street &amp; Seaver Avenue","Phone":"(718) 987-9800","Setting":"Outdoor","Accessible":"No","Borough":"Staten Island"},{"Name":"PS 14 Playground","Location":"Tompkins Ave. btwn Hill &amp; Broad Sts.","Phone":"(718) 448-5969","Setting":"Outdoor","Accessible":"No","Borough":"Staten Island"},{"Name":"PS 46 Playground","Location":"Parkinson Avenue &amp; Kramer Street","Phone":"(718) 448-8694","Setting":"Outdoor","Accessible":"No","Borough":"Staten Island"},{"Name":"Lyons","Location":"Pier 6 &amp; Victory Boulevard","Phone":"(718) 816-5255","Setting":"Outdoor","Accessible":"No","Borough":"Staten Island"},{"Name":"Fort Totten","Location":"338 Story Avenue","Phone":"(718) 224-4031","Setting":"Outdoor","Accessible":"","Borough":"Queens"},{"Name":"Fisher","Location":"99th Street and 32nd Avenue","Phone":"(718) 779-8356","Setting":"Outdoor","Accessible":"No","Borough":"Queens"},{"Name":"Floating Pool","Location":"Tiffany Street & Viele Avenue","Phone":"(718) 430-4601","Setting":"Outdoor","Accessible":"Yes","Borough":""},{"Name":"McCarren","Location":"McCarren Park","Phone":"(718) 218-2380","Setting":"Outdoor","Accessible":"Yes","Borough":"Brooklyn"},{"Name":"Brooklyn Bridge Park","Location":"Brooklyn Bridge Park Pier 2","Phone":"","Setting":"Outdoor","Accessible":"No","Borough":"Manhattan"}]
